{"companies":[

	{
	"name":"3M",
	"address":"639 North Rosemead Boulevard Passadena CA 91107",
	"lat":"34.156263",
	"lng":"-118.080098",
	"positions":""
     },
     
     {
	"name":"BuzzFeed",
	"address":"7323 Beverly Blvd Los Angeles CA 90036",
	"lat":"34.076432",
	"lng":"-118.349561",
	"positions":""
     },

	{
	"name":"Bluebeam",
	"address":"55 S Lake Ave Ste 900 Pasadena CA 91101",
	"lat":"34.144938",
	"lng":"-118.132608",
	"positions":""
     },

     {
	"name":"Consumer Track",
	"address":"2121 Rosecrans Ave Suite 1300 El Segundo CA 90245",
	"lat":"33.902295",
	"lng":"-118.387352",
	"positions":""
     },
     
     {
	"name":"Cornestone On Demand",
	"address":"1601 Cloverfield Blvd Santa Monica CA 90404",
	"lat":"34.028281",
	"lng":"-118.472627",
	"positions":""
     },
     
     {
	"name":"Experian - Costa Mesa",
	"address":"475 Anton Boulevard Costa Mesa CA 92626",
	"lat":"33.689456",
	"lng":"-117.874016",
	"positions":""
     },
     
     {
	"name":"Experian - El Segundo",
	"address":"841 Apollo St El Segundo CA 90245",
	"lat":"33.903735",
	"lng":"-118.386998",
	"positions":""
     },
     
     {
	"name":"Direct TV - Los Angeles",
	"address":"418 South Hope St Los Angeles 90071",
	"lat":"34.052074",
	"lng":"-118.253864",
	"positions":""
     },
     
     {
	"name":"FILD",
	"address":"999 N Sepulveda Blvd El Segundo CA 90245",
	"lat":"33.930330",
	"lng":"-118.396721",
	"positions":""
     },

     {
	"name":"fuhu",
	"address":"909 N Sepulveda Blvd El Segundo CA 90245",
	"lat":"33.929542",
	"lng":"-118.396622",
	"positions":""
     },
     
	 {
	"name":"Guidance Solutions",
	"address":"4134 Del Rey Avenue Marina del Rey CA 90292",
	"lat":"33.988414",
	"lng":"-118.443499",
	"positions":""
     },
     
     {
	"name":"The Mobile Majority",
	"address":"2041 Colorado Ave Santa Monica CA 90404",
	"lat":"34.027083",
	"lng":"-118.475956",
	"positions":""
     },

     {
	"name":"Symantec - Culver City",
	"address":"900 Corporate Pointe Culver City CA 90230",
	"lat":"33.987867",
	"lng":"-118.388909",
	"positions":""
     },

     {
	"name":"Symantec - Santa Monica",
	"address":"2500 Broadway Santa Monica CA 90404",
	"lat":"34.030544",
	"lng":"-118.473573",
	"positions":""
     },
     
     {
	"name":"the Next Up",
	"address":"1241 N Lakeview Ave Anaheim CA 92807",
	"lat":"33.860798",
	"lng":"-117.819335",
	"positions":""
     },
          
     {
	"name":"TrueCar",
	"address":"120 Broadway Santa Monica CA 90401",
	"lat":"34.013252",
	"lng":"-118.495512",
	"positions":""
     },
     
     {
	"name":"Ubiquiti Networks - UI Design Lab",
	"address":"3109 South La Cienega Boulevard Los Angeles CA 90016",
	"lat":"34.029512",
	"lng":"-118.371947",
	"positions":""
     },
     
     {
	"name":"XYPRO",
	"address":"4100 Guardian Street Simi Valley CA 93063",
	"lat":"34.263700",
	"lng":"-118.714824",
	"positions":""
     },
     
     {
	"name":"1",
	"address":"",
	"lat":"",
	"lng":"",
	"positions":""
     },
     
     {
	"name":"2",
	"address":"2500 Broadway Santa Monica CA 90404",
	"lat":"",
	"lng":"",
	"positions":""
     }
	]
}













